airport_icao,airport_name,city,country,latitude,longitude
KJFK,John F Kennedy International,New York,United States,40.6413,-73.7781
EGLL,Heathrow,London,United Kingdom,51.4700,-0.4543
LFPG,Charles de Gaulle,Paris,France,49.0097,2.5479
RJTT,Haneda,Tokyo,Japan,35.5494,139.7798
OMDB,Dubai International,Dubai,United Arab Emirates,25.2532,55.3657
YSSY,Sydney Kingsford Smith,Sydney,Australia,-33.9461,151.1772
